{
"type": "FeatureCollection",
"name": "final2_libraries_shapes_with_data",
"crs": { "type": "name", "properties": { "name": "urn:ogc:def:crs:EPSG::26912" } },
"features": [
{ "type": "Feature", "properties": { "fid": 7, "STATUS": "L", "NAME": "Provo City Library", "ADDRESS": "550 N UNIVERSITY AVE, PROVO UT 84601", "PO_BOX": null, "CITY": "PROVO", "COUNTY": "Utah", "ZIP_CODE": "84601", "PHONE": "801-852-6650", "FAX": "801-852-6688", "DIRECTOR": "Gene Nelson", "ASST_DIREC": null, "DIRECTOR_E": "genen@provolibrary.com", "WEBSITE": "https://www.provolibrary.com", "HOURS_MOND": "9:00 AM - 9:00 PM", "HOURS_TUES": "9:00 AM - 9:00 PM", "HOURS_WEDN": "9:00 AM - 9:00 PM", "HOURS_THUR": "9:00 AM - 9:00 PM", "HOURS_FRID": "9:00 AM - 9:00 PM", "HOURS_SATU": "9:00 AM - 6:00 PM", "HOURS_SUND": "Closed", "Library_ID": "UT0062-002", "computers": true, "wifi": true, "study_help": true, "fooddrink": true, "printer": true, "classes": true, "genealogy": false, "nonres_fee": "$120", "Name_2": "Provo City Library" }, "geometry": { "type": "MultiPoint", "coordinates": [ [ 443988.700000000186265, 4454724.7 ] ] } },
{ "type": "Feature", "properties": { "fid": 17, "STATUS": "L", "NAME": "Utah State Hospital Patient Library", "ADDRESS": "1300 E CENTER ST, PROVO UT 84603", "PO_BOX": null, "CITY": "PROVO", "COUNTY": "Utah", "ZIP_CODE": "84603", "PHONE": "801-344-4400", "FAX": null, "DIRECTOR": null, "ASST_DIREC": null, "DIRECTOR_E": null, "WEBSITE": "https://www.ush.utah.gov library.html", "HOURS_MOND": null, "HOURS_TUES": null, "HOURS_WEDN": null, "HOURS_THUR": null, "HOURS_FRID": null, "HOURS_SATU": null, "HOURS_SUND": null, "Library_ID": null, "computers": null, "wifi": null, "study_help": null, "fooddrink": null, "printer": null, "classes": null, "genealogy": null, "nonres_fee": null, "Name_2": "Utah State Hospital Patient Library" }, "geometry": { "type": "MultiPoint", "coordinates": [ [ 445963.779978336358909, 4453978.639551473781466 ] ] } },
{ "type": "Feature", "properties": { "fid": 8, "STATUS": "L", "NAME": "Santaquin City Library", "ADDRESS": "20 W 100 S, SANTAQUIN UT 84655", "PO_BOX": null, "CITY": "SANTAQUIN", "COUNTY": "Utah", "ZIP_CODE": "84655", "PHONE": "801-754-3030", "FAX": "801-754-1965", "DIRECTOR": "Lyn Oryall", "ASST_DIREC": null, "DIRECTOR_E": "loryall@santaquin.org", "WEBSITE": "www.santaquinlibrary.org", "HOURS_MOND": "Noon - 8:00 PM", "HOURS_TUES": "Noon - 8:00 PM", "HOURS_WEDN": "Noon - 8:00 PM", "HOURS_THUR": "Noon - 8:00 PM", "HOURS_FRID": "Noon - 5:00 PM", "HOURS_SATU": "Closed", "HOURS_SUND": "Closed", "Library_ID": "UT0063-002", "computers": true, "wifi": true, "study_help": false, "fooddrink": false, "printer": true, "classes": true, "genealogy": true, "nonres_fee": "$35", "Name_2": "Santaquin City Library" }, "geometry": { "type": "MultiPoint", "coordinates": [ [ 432904.799999999813735, 4425183.2 ] ] } },
{ "type": "Feature", "properties": { "fid": 5, "STATUS": "L", "NAME": "Payson City Library", "ADDRESS": "66 S MAIN ST, PAYSON UT 84651", "PO_BOX": null, "CITY": "PAYSON", "COUNTY": "Utah", "ZIP_CODE": "84651", "PHONE": "801-465-5220", "FAX": null, "DIRECTOR": "Linda Collard", "ASST_DIREC": "Sherry Gay", "DIRECTOR_E": "lindac@payson.org", "WEBSITE": "https://paysonlibrary.org", "HOURS_MOND": "10:00 AM - 8:00 PM", "HOURS_TUES": "10:00 AM - 8:00 PM", "HOURS_WEDN": "10:00 AM - 8:00 PM", "HOURS_THUR": "9:00 AM - 9:00 PM", "HOURS_FRID": "11:00 AM - 5:00 PM", "HOURS_SATU": "11:00 AM - 5:00 PM", "HOURS_SUND": "Closed", "Library_ID": "UT0060-002", "computers": true, "wifi": true, "study_help": false, "fooddrink": false, "printer": true, "classes": true, "genealogy": false, "nonres_fee": "$40 year", "Name_2": "Payson City Library" }, "geometry": { "type": "MultiPoint", "coordinates": [ [ 437507.140855007106438, 4432787.480329071171582 ] ] } },
{ "type": "Feature", "properties": { "fid": 15, "STATUS": "L", "NAME": "Salem City Library", "ADDRESS": "59 S MAIN ST, SALEM UT 84653", "PO_BOX": null, "CITY": "SALEM", "COUNTY": "Utah", "ZIP_CODE": "84653", "PHONE": "801-423-2622", "FAX": null, "DIRECTOR": "Kerry Burnham", "ASST_DIREC": null, "DIRECTOR_E": "kerryl@salemcity.org", "WEBSITE": "https://www.salemcitylibrary.org ", "HOURS_MOND": "10:00 AM - 6:00 PM", "HOURS_TUES": "10:00 AM - 7:00 PM", "HOURS_WEDN": "10:00 AM - 7:00 PM", "HOURS_THUR": "10:00 AM - 7:00 PM", "HOURS_FRID": "2:00 AM - 5:00 PM", "HOURS_SATU": "10:00 AM - 2:00 PM", "HOURS_SUND": "Closed", "Library_ID": "UT0072-001", "computers": true, "wifi": true, "study_help": false, "fooddrink": false, "printer": true, "classes": true, "genealogy": true, "nonres_fee": "$25 year", "Name_2": "Salem City Library" }, "geometry": { "type": "MultiPoint", "coordinates": [ [ 442599.906472342961933, 4433919.568006656132638 ] ] } },
{ "type": "Feature", "properties": { "fid": 9, "STATUS": "L", "NAME": "Spanish Fork Public Library", "ADDRESS": "49 S MAIN ST, SPANISH FORK UT 84660", "PO_BOX": null, "CITY": "SPANISH FORK", "COUNTY": "Utah", "ZIP_CODE": "84660", "PHONE": "801-804-4488", "FAX": "801-798-5014", "DIRECTOR": "Pam Jackson", "ASST_DIREC": null, "DIRECTOR_E": "pjackson@spanishfork.org", "WEBSITE": "https://www.spanishfork.org dept library ", "HOURS_MOND": "10:00 AM - 8:00 PM", "HOURS_TUES": "10:00 AM - 8:00 PM", "HOURS_WEDN": "10:00 AM - 8:00 PM", "HOURS_THUR": "10:00 AM - 6:00 PM", "HOURS_FRID": "Noon - 6:00 PM", "HOURS_SATU": "Noon - 6:00 PM", "HOURS_SUND": "Closed", "Library_ID": "UT0064-002", "computers": null, "wifi": null, "study_help": null, "fooddrink": null, "printer": null, "classes": null, "genealogy": null, "nonres_fee": null, "Name_2": "Spanish Fork Public Library" }, "geometry": { "type": "MultiPoint", "coordinates": [ [ 444244.29647234256845, 4440077.948728483170271 ] ] } },
{ "type": "Feature", "properties": { "fid": 10, "STATUS": "L", "NAME": "Springville Public Library", "ADDRESS": "45 S MAIN ST, SPRINGVILLE UT 84663", "PO_BOX": null, "CITY": "SPRINGVILLE", "COUNTY": "Utah", "ZIP_CODE": "84663", "PHONE": "801-489-2720", "FAX": "801-491-7857", "DIRECTOR": "Pam Vaughn", "ASST_DIREC": "Ellen Wilson", "DIRECTOR_E": "pvaughn@springville.org", "WEBSITE": "https://www.springville.org springvillelibrary ", "HOURS_MOND": "10:00 AM - 9:00 PM", "HOURS_TUES": "10:00 AM - 9:00 PM", "HOURS_WEDN": "10:00 AM - 9:00 PM", "HOURS_THUR": "10:00 AM - 9:00 PM", "HOURS_FRID": "10:00 AM - 6:00 PM", "HOURS_SATU": "10:00 AM - 4:00 PM", "HOURS_SUND": "Closed", "Library_ID": "UT0065-002", "computers": null, "wifi": null, "study_help": null, "fooddrink": null, "printer": null, "classes": null, "genealogy": null, "nonres_fee": null, "Name_2": "Springville Public Library" }, "geometry": { "type": "MultiPoint", "coordinates": [ [ 448048.694504060025793, 4446387.021983759477735 ] ] } },
{ "type": "Feature", "properties": { "fid": 19, "STATUS": "L", "NAME": "Utah Valley University Library - Fire Science Campus (Provo Airport)", "ADDRESS": "3131 W MIKE JENSE PKWY, PROVO UT 84601", "PO_BOX": null, "CITY": "PROVO", "COUNTY": "Utah", "ZIP_CODE": "84601", "PHONE": "801-863-7709", "FAX": null, "DIRECTOR": "Michael Freeman", "ASST_DIREC": null, "DIRECTOR_E": "michael.freeman@uvu.edu", "WEBSITE": "https://www.uvu.edu library airport.html", "HOURS_MOND": "8:00 AM - 5:00 PM", "HOURS_TUES": "8:00 AM - 5:00 PM", "HOURS_WEDN": "8:00 AM - 5:00 PM", "HOURS_THUR": "8:00 AM - 5:00 PM", "HOURS_FRID": "8:00 AM - 5:00 PM", "HOURS_SATU": "Closed", "HOURS_SUND": "Closed", "Library_ID": null, "computers": null, "wifi": null, "study_help": null, "fooddrink": null, "printer": null, "classes": null, "genealogy": null, "nonres_fee": null, "Name_2": "Utah Valley University Library - Fire Science Campus (Provo Airport)" }, "geometry": { "type": "MultiPoint", "coordinates": [ [ 439247.08, 4452439.17 ] ] } },
{ "type": "Feature", "properties": { "fid": 12, "STATUS": "L", "NAME": "Brigham Young University - Harold B. Lee Library", "ADDRESS": "450 E NORTH CAMPUS DR, PROVO UT 84602", "PO_BOX": "PO Box 26800", "CITY": "PROVO", "COUNTY": "Utah", "ZIP_CODE": "84602-6800", "PHONE": "801-422-2927", "FAX": null, "DIRECTOR": null, "ASST_DIREC": null, "DIRECTOR_E": null, "WEBSITE": "https://www.lib.byu.edu ", "HOURS_MOND": "7:00 AM - Midnight", "HOURS_TUES": "7:00 AM - Midnight", "HOURS_WEDN": "7:00 AM - Midnight", "HOURS_THUR": "7:00 AM - Midnight", "HOURS_FRID": "7:00 AM - Midnight", "HOURS_SATU": "8:00 AM - Midnight", "HOURS_SUND": "Closed", "Library_ID": null, "computers": true, "wifi": true, "study_help": true, "fooddrink": true, "printer": true, "classes": true, "genealogy": true, "nonres_fee": "$10-$50 year", "Name_2": "Brigham Young University - Harold B. Lee Library" }, "geometry": { "type": "MultiPoint", "coordinates": [ [ 444782.379999999888241, 4455624.16 ] ] } },
{ "type": "Feature", "properties": { "fid": 13, "STATUS": "L", "NAME": "Brigham Young University - Hunter Law Library", "ADDRESS": "450 E NORTH CAMPUS DR, PROVO UT 84602", "PO_BOX": null, "CITY": "PROVO", "COUNTY": "Utah", "ZIP_CODE": "84602-6800", "PHONE": "801-422-3593", "FAX": null, "DIRECTOR": null, "ASST_DIREC": null, "DIRECTOR_E": null, "WEBSITE": "https://lawlib.byu.edu ", "HOURS_MOND": "6:00 AM - Midnight", "HOURS_TUES": "6:00 AM - Midnight", "HOURS_WEDN": "6:00 AM - Midnight", "HOURS_THUR": "6:00 AM - Midnight", "HOURS_FRID": "6:00 AM - Midnight", "HOURS_SATU": "6:00 AM - Midnight", "HOURS_SUND": "Closed", "Library_ID": null, "computers": true, "wifi": true, "study_help": false, "fooddrink": true, "printer": true, "classes": false, "genealogy": false, "nonres_fee": null, "Name_2": "Brigham Young University - Hunter Law Library" }, "geometry": { "type": "MultiPoint", "coordinates": [ [ 445112.429999999701977, 4455675.47 ] ] } },
{ "type": "Feature", "properties": { "fid": 18, "STATUS": "L", "NAME": "Utah Valley University Library", "ADDRESS": "800 W COLLEGE DR, OREM UT 84058", "PO_BOX": null, "CITY": "OREM", "COUNTY": "Utah", "ZIP_CODE": "84058", "PHONE": "801-863-8265", "FAX": null, "DIRECTOR": "Michael Freeman", "ASST_DIREC": null, "DIRECTOR_E": "michael.freeman@uvu.edu", "WEBSITE": "https://www.uvu.edu library ", "HOURS_MOND": "7:00 AM - Midnight", "HOURS_TUES": "7:00 AM - Midnight", "HOURS_WEDN": "7:00 AM - Midnight", "HOURS_THUR": "7:00 AM - Midnight", "HOURS_FRID": "7:00 AM - Midnight", "HOURS_SATU": "8:00 AM - 7:00 PM", "HOURS_SUND": "Closed", "Library_ID": null, "computers": null, "wifi": null, "study_help": null, "fooddrink": null, "printer": null, "classes": null, "genealogy": null, "nonres_fee": null, "Name_2": "Utah Valley University Library" }, "geometry": { "type": "MultiPoint", "coordinates": [ [ 439127.610000000335276, 4459142.88 ] ] } },
{ "type": "Feature", "properties": { "fid": 4, "STATUS": "L", "NAME": "Orem Public Library", "ADDRESS": "58 N STATE ST, OREM UT 84057", "PO_BOX": null, "CITY": "OREM", "COUNTY": "Utah", "ZIP_CODE": "84057", "PHONE": "801-229-7050", "FAX": "801-229-7130", "DIRECTOR": "Charlene Crozier, Interim Director", "ASST_DIREC": null, "DIRECTOR_E": "ccrozier@orem.org", "WEBSITE": "https://www.oremlibrary.org ", "HOURS_MOND": "9:00 AM - 9:00 PM", "HOURS_TUES": "9:00 AM - 9:00 PM", "HOURS_WEDN": "9:00 AM - 9:00 PM", "HOURS_THUR": "9:30 AM - 9:00 PM", "HOURS_FRID": "9:00 AM - 9:00 PM", "HOURS_SATU": "9:00 AM - 6:00 PM", "HOURS_SUND": "Closed", "Library_ID": "UT0059-002", "computers": true, "wifi": true, "study_help": true, "fooddrink": false, "printer": true, "classes": true, "genealogy": true, "nonres_fee": "$100 year", "Name_2": "Orem Public Library" }, "geometry": { "type": "MultiPoint", "coordinates": [ [ 440963.93100872047944, 4461137.852829927578568 ] ] } },
{ "type": "Feature", "properties": { "fid": 6, "STATUS": "L", "NAME": "Pleasant Grove Public Library", "ADDRESS": "30 E CENTER ST, PLEASANT GROVE UT 84062", "PO_BOX": null, "CITY": "PLEASANT GROVE", "COUNTY": "Utah", "ZIP_CODE": "84062", "PHONE": "801-785-3950", "FAX": "801-785-9734", "DIRECTOR": "April Harrison", "ASST_DIREC": null, "DIRECTOR_E": "aharmer@pgcity.org", "WEBSITE": "https://www.plgrove.org library ", "HOURS_MOND": "9:00 AM - 9:00 PM", "HOURS_TUES": "9:00 AM - 9:00 PM", "HOURS_WEDN": "9:00 AM - 9:00 PM", "HOURS_THUR": "9:00 AM - 9:00 PM", "HOURS_FRID": "10:00 AM - 6:00 PM", "HOURS_SATU": "10:00 AM - 6:00 PM", "HOURS_SUND": "Closed", "Library_ID": "UT0061-002", "computers": true, "wifi": true, "study_help": true, "fooddrink": true, "printer": true, "classes": true, "genealogy": true, "nonres_fee": "$80 year", "Name_2": "Pleasant Grove Public Library" }, "geometry": { "type": "MultiPoint", "coordinates": [ [ 437201.618785861937795, 4468365.719770485535264 ] ] } },
{ "type": "Feature", "properties": { "fid": 1, "STATUS": "L", "NAME": "American Fork City Library", "ADDRESS": "64 S 100 E, AMERICAN FORK UT 84003", "PO_BOX": null, "CITY": "AMERICAN FORK", "COUNTY": "Utah", "ZIP_CODE": "84003", "PHONE": "801-763-3070", "FAX": "801-763-3073", "DIRECTOR": "Sheena Parker", "ASST_DIREC": "Kathy Goodwin", "DIRECTOR_E": "sheena@afcity.net", "WEBSITE": "https://afcity.org Departments Library tabid 166 Default.aspx", "HOURS_MOND": "9:00 AM - 9:00 PM", "HOURS_TUES": "9:00 AM - 9:00 PM", "HOURS_WEDN": "9:00 AM - 9:00 PM", "HOURS_THUR": "9:00 AM - 9:00 PM", "HOURS_FRID": "10:00 Noon - 6:00 PM", "HOURS_SATU": "10:00 AM - 6:00 PM", "HOURS_SUND": "Closed", "Library_ID": "UT0057-002", "computers": true, "wifi": true, "study_help": true, "fooddrink": false, "printer": true, "classes": true, "genealogy": false, "nonres_fee": "$80 year", "Name_2": "American Fork Library" }, "geometry": { "type": "MultiPoint", "coordinates": [ [ 432380.0, 4469737.2 ] ] } },
{ "type": "Feature", "properties": { "fid": 3, "STATUS": "L", "NAME": "Lehi City Public Library", "ADDRESS": "120 N CENTER ST, LEHI UT 84043", "PO_BOX": null, "CITY": "LEHI", "COUNTY": "Utah", "ZIP_CODE": "84043", "PHONE": "801-768-7150", "FAX": "801-766-8856", "DIRECTOR": "Kristi Seely", "ASST_DIREC": null, "DIRECTOR_E": "kseely@lehi-ut.gov", "WEBSITE": "https://www.lehi-ut.gov discover library", "HOURS_MOND": "9:00 AM - 9:00 PM", "HOURS_TUES": "9:00 AM - 9:00 PM", "HOURS_WEDN": "9:00 AM - 9:00 PM", "HOURS_THUR": "9:00 AM - 9:00 PM", "HOURS_FRID": "10:00 AM - 6:00 PM", "HOURS_SATU": "10:00 AM - 6:00 PM", "HOURS_SUND": "Closed", "Library_ID": "UT0058-002", "computers": true, "wifi": true, "study_help": false, "fooddrink": false, "printer": true, "classes": true, "genealogy": true, "nonres_fee": "$0-$80 year", "Name_2": "Lehi City Public Library" }, "geometry": { "type": "MultiPoint", "coordinates": [ [ 427933.599999999627471, 4471306.1 ] ] } },
{ "type": "Feature", "properties": { "fid": 16, "STATUS": "L", "NAME": "Saratoga Springs Library", "ADDRESS": "1307 N COMMERCE DR, SARATOGA SPRINGS UT 84045", "PO_BOX": null, "CITY": "SARATOGA SPRINGS", "COUNTY": "Utah", "ZIP_CODE": "84045", "PHONE": "801-766-6513", "FAX": null, "DIRECTOR": "Sue Alexander", "ASST_DIREC": null, "DIRECTOR_E": "grandma5532@yahoo.com", "WEBSITE": "https://www.saratogaspringscity.com index.asp?SEC={9A064D90-67DD-452B-B197-DB4A30044D04}&Type=B_BASIC", "HOURS_MOND": "10:00 AM - 2:00 PM", "HOURS_TUES": "3:00 PM - 7:00 PM", "HOURS_WEDN": "10:00 AM - 2:00 PM", "HOURS_THUR": "3:00 PM - 7:00 PM", "HOURS_FRID": "Closed", "HOURS_SATU": "10:00 AM - 2:00 PM", "HOURS_SUND": "Closed", "Library_ID": null, "computers": true, "wifi": false, "study_help": true, "fooddrink": false, "printer": true, "classes": true, "genealogy": true, "nonres_fee": null, "Name_2": "Saratoga Springs Library" }, "geometry": { "type": "MultiPoint", "coordinates": [ [ 422507.379999999888241, 4471021.92 ] ] } },
{ "type": "Feature", "properties": { "fid": 2, "STATUS": "L", "NAME": "Eagle Mountain Public Library", "ADDRESS": "1650 E STAGECOACH RUN, EAGLE MOUNTAIN UT 84005", "PO_BOX": null, "CITY": "EAGLE MOUNTAIN", "COUNTY": "Utah", "ZIP_CODE": "84005", "PHONE": "801-789-6623", "FAX": "801-789-6653", "DIRECTOR": "Michele Graves", "ASST_DIREC": null, "DIRECTOR_E": "libraryeaglemtn@gmail.com", "WEBSITE": "https://www.eaglemountaincity.com", "HOURS_MOND": "10:00 AM - 6:30 PM", "HOURS_TUES": "10:00 AM - 6:30 PM", "HOURS_WEDN": "10:00 AM - 6:30 PM", "HOURS_THUR": "10:00 AM - 6:30 PM", "HOURS_FRID": "10:00 AM - 2:00 PM", "HOURS_SATU": "10:00 AM - 2:00 PM", "HOURS_SUND": "Closed", "Library_ID": "UT8002-001", "computers": true, "wifi": true, "study_help": false, "fooddrink": false, "printer": true, "classes": false, "genealogy": false, "nonres_fee": null, "Name_2": "Eagle Mountain Public Library" }, "geometry": { "type": "MultiPoint", "coordinates": [ [ 413990.08, 4462585.71 ] ] } },
{ "type": "Feature", "properties": { "fid": 14, "STATUS": "L", "NAME": "Highland City Library", "ADDRESS": "5400 W CIVIC CENTER DR, HIGHLAND UT 84003", "PO_BOX": null, "CITY": "HIGHLAND", "COUNTY": "Utah", "ZIP_CODE": "84003", "PHONE": "801-772-4528", "FAX": null, "DIRECTOR": "Kent Slade", "ASST_DIREC": null, "DIRECTOR_E": null, "WEBSITE": "https://www.highlandcity.org index.aspx?NID=110", "HOURS_MOND": "10:00 AM - 9:00 PM", "HOURS_TUES": "10:00 AM - 9:00 PM", "HOURS_WEDN": "10:00 AM - 9:00 PM", "HOURS_THUR": "10:00 AM - 9:00 PM", "HOURS_FRID": "10:00 AM - 6:00 PM", "HOURS_SATU": "10:00 AM - 6:00 PM", "HOURS_SUND": "Closed", "Library_ID": "UT0071-001", "computers": true, "wifi": true, "study_help": false, "fooddrink": false, "printer": true, "classes": true, "genealogy": false, "nonres_fee": "$70 year", "Name_2": "Highland City Library" }, "geometry": { "type": "MultiPoint", "coordinates": [ [ 433071.660000000149012, 4475614.27 ] ] } },
{ "type": "Feature", "properties": { "fid": 11, "STATUS": "L", "NAME": "Utah County Bookmobile Library", "ADDRESS": "125 W 400 N, MAPLETON UT 84664", "PO_BOX": null, "CITY": "MAPLETON", "COUNTY": "Utah", "ZIP_CODE": "84664", "PHONE": "801-489-4833", "FAX": "801-806-9126", "DIRECTOR": "vacant", "ASST_DIREC": "Patricia Demott", "DIRECTOR_E": null, "WEBSITE": "https://bookmobiles.utah.gov utah index.html", "HOURS_MOND": "10:00 AM - 8:00 PM", "HOURS_TUES": "10:00 AM - 8:00 PM", "HOURS_WEDN": "10:00 AM - 8:00 PM", "HOURS_THUR": "10:00 AM - 8:00 PM", "HOURS_FRID": "10:00 AM - 6:00 PM", "HOURS_SATU": "10:00 AM - 2:00 PM", "HOURS_SUND": "Closed", "Library_ID": "UT0056-003", "computers": null, "wifi": null, "study_help": null, "fooddrink": null, "printer": null, "classes": null, "genealogy": null, "nonres_fee": null, "Name_2": "Utah County Bookmobile Library" }, "geometry": { "type": "MultiPoint", "coordinates": [ [ 449675.817468466935679, 4442835.609348955564201 ] ] } }
]
}
